%time,field.header.seq,field.header.stamp,field.header.frame_id,field.point.x,field.point.y,field.point.z
1555847859558701748,49,1403636581218881368,,4.75930233486,-1.83258241674,1.08057460501
1555847859582795981,50,1403636581316881179,,4.7601660229,-1.83146056654,1.1382204151
1555847859628123663,51,1403636581369881391,,4.7612933054,-1.83036896503,1.16247540845
1555847859677124001,52,1403636581417881250,,4.76291747561,-1.82978867159,1.18285997806
1555847859734666642,53,1403636581467881202,,4.76597097178,-1.82982746404,1.19702779883
1555847859803106517,54,1403636581520881175,,4.76929051188,-1.83066300715,1.20373127054
1555847860315361102,55,1403636582017881393,,4.78005414941,-1.82419315705,0.955955706672
1555847860439602765,56,1403636582120881319,,4.78149506206,-1.82543414571,0.891417545923
1555847860480575464,57,1403636582217881202,,4.77754117404,-1.82638649736,0.839981387411
1555847860524289796,58,1403636582270881175,,4.77742575996,-1.82775879586,0.819805124588
1555847860587379935,59,1403636582319881200,,4.77636058086,-1.82858460619,0.807076069818
1555847860656777433,60,1403636582368881225,,4.77804786692,-1.83066414476,0.801867315518
1555847861272961945,61,1403636582968881368,,4.76829347246,-1.828484513,1.11762596063
1555847861317084314,62,1403636583019881248,,4.76653380376,-1.82550239793,1.14971797088
1555847861360105280,63,1403636583066881179,,4.76807635426,-1.82364823108,1.1766975058
1555847861404322536,64,1403636583118881225,,4.77014996026,-1.82249657534,1.20176354803
1555847861448988420,65,1403636583169881343,,4.77255341304,-1.82195830967,1.22035279718
1555847861505675616,66,1403636583221881389,,4.77446942012,-1.82146414193,1.23177581317
1555847861550046180,67,1403636583268881320,,4.77581965764,-1.82123549227,1.23520319445
1555847862094019612,68,1403636583819881200,,4.77524120901,-1.81308349184,0.94286590672
1555847862207091254,69,1403636583918881177,,4.77505607564,-1.81132635349,0.883372285713
1555847862253812574,70,1403636583967881202,,4.77412827651,-1.81071584511,0.858219927165
1555847862297502983,71,1403636584018881320,,4.77487665775,-1.81143523188,0.834180686567
1555847862340290874,72,1403636584070881366,,4.77499663411,-1.81227255863,0.81440123328
1555847862387234046,73,1403636584118881225,,4.77563984919,-1.81345972165,0.799624030964
1555847862437666650,74,1403636584168881177,,4.77783423509,-1.81538598806,0.790184510169
1555847862502995308,75,1403636584219881296,,4.77895846002,-1.81695006458,0.787218393301
1555847863178888429,76,1403636584866881370,,4.75541313872,-1.81198401247,1.1471547451
1555847863222305711,77,1403636584966881275,,4.75652427221,-1.81349547696,1.20326792448
1555847863309959836,78,1403636585020881175,,4.75858146854,-1.81459978342,1.22674505715
1555847863354753126,79,1403636585068881273,,4.76019084645,-1.81559039284,1.24318450481
1555847863398823300,80,1403636585119881391,,4.7614062922,-1.81652079637,1.25260305136
1555847863442534855,81,1403636585170881271,,4.76135288107,-1.81692560373,1.25455546899
1555847864003145843,82,1403636585667881250,,4.76086240945,-1.80833024893,1.04344326695
1555847864046992154,83,1403636585767881393,,4.76318740204,-1.80515077846,1.00105425743
1555847864090982731,84,1403636585818881273,,4.76714862068,-1.80441064542,0.98514686284
1555847864133716637,85,1403636585867881298,,4.77222342493,-1.80465528489,0.973412054212
1555847864177680851,86,1403636585916881322,,4.77476548185,-1.80412375398,0.965464406467
1555847864222870637,87,1403636585967881202,,4.77850218939,-1.80424948516,0.960879894095
1555847864272405168,88,1403636586018881320,,4.78250335229,-1.80449246633,0.959052570477
1555847864354156131,89,1403636586068881273,,4.78652040414,-1.80534737086,0.959411052433
1555847864398926121,90,1403636586120881319,,4.78768497687,-1.80557011453,0.960953023999
1555847864443015418,91,1403636586169881343,,4.78770940758,-1.80613507761,0.963066838338
1555847864503563583,92,1403636586219881296,,4.78710777566,-1.80832809996,0.965087736949
1555847864547796520,93,1403636586268881320,,4.78611085266,-1.80920265081,0.968754523954
1555847864591568624,94,1403636586319881200,,4.78472182715,-1.81112850244,0.97250000479
1555847864640092594,95,1403636586368881225,,4.7843297604,-1.81310591977,0.975746898009
1555847864755187555,96,1403636586467881202,,4.78699518556,-1.81605801182,0.98088128955
1555847864795552772,97,1403636586518881320,,4.78913029228,-1.8166657956,0.982874213527
1555847864838660409,98,1403636586567881345,,4.79231429947,-1.81723985304,0.984515925073
1555847864887555924,99,1403636586617881298,,4.79468544656,-1.81708787363,0.986042030804
1555847864936376364,100,1403636586666881322,,4.79831279187,-1.81652811147,0.987830253554
1555847865002744083,101,1403636586718881368,,4.80139114649,-1.81470404019,0.990079431619
1555847865090851013,102,1403636586766881227,,4.80483440843,-1.81191611751,0.992368464901
1555847865137273242,103,1403636586817881345,,4.80774491995,-1.80776737591,0.994974475974
1555847865187614775,104,1403636586866881370,,4.81050525717,-1.80376498226,0.996731344619
1555847865254173678,105,1403636586967881202,,4.81314642976,-1.7943608809,0.998626545757
1555847865298247071,106,1403636587019881248,,4.81326288552,-1.79107644563,0.998293889321
1555847865342589904,107,1403636587069881200,,4.81275613744,-1.78939702136,0.997724459989
1555847865440215863,108,1403636587121881246,,4.80934599092,-1.78699155295,0.997567157534
1555847865505985136,109,1403636587221881389,,4.80527784857,-1.78352478329,0.997602203046
1555847865550741089,110,1403636587269881248,,4.80300965956,-1.78103882913,0.997838590393
1555847865593581915,111,1403636587321881294,,4.80121639358,-1.77715301811,0.99766419863
1555847865640704701,112,1403636587369881391,,4.79990620574,-1.77192704069,0.997395058228
1555847865688926428,113,1403636587420881271,,4.79930772756,-1.76465731436,0.996781922451
1555847865839768805,114,1403636587521881341,,4.79603281554,-1.74420296596,0.996254301532
1555847865887239029,115,1403636587566881179,,4.79679530032,-1.73314640446,0.995884282616
1555847865937939339,116,1403636587621881246,,4.79972392512,-1.71890183011,0.995317721434
1555847866003985173,117,1403636587718881368,,4.80534290777,-1.68794816767,0.995043605894
1555847866090485683,118,1403636587817881345,,4.81422996506,-1.65341708958,0.995845269746
1555847866186743671,119,1403636587869881391,,4.81686044046,-1.63361302601,0.996980540912
1555847866252525577,120,1403636587967881202,,4.82663613326,-1.59846782337,0.998095587536
1555847866297547128,121,1403636588018881320,,4.8314456757,-1.5804701558,0.997552836983
1555847866341174297,122,1403636588068881273,,4.83583926531,-1.56332188867,0.996339146611
1555847866387500972,123,1403636588117881298,,4.8396873661,-1.54753996172,0.994704195362
1555847866441499886,124,1403636588167881250,,4.84324881788,-1.53238307996,0.992743484309
1555847866539759250,125,1403636588221881389,,4.84560238156,-1.51750530797,0.990623333411
1555847866590156779,126,1403636588270881175,,4.84897745941,-1.5057719391,0.987927871702
1555847866640543665,127,1403636588320881366,,4.85191122438,-1.49545207965,0.985480848798
1555847866689884949,128,1403636588422881364,,4.85600139653,-1.48064815362,0.981269908814
1555847866753881700,129,1403636588470881223,,4.85806152694,-1.47678981169,0.979724219
1555847866840021254,130,1403636588567881345,,4.86041649661,-1.47523647993,0.977691221495
1555847866936904463,131,1403636588621881246,,4.86070919676,-1.4776044682,0.977331655678
1555847867003151815,132,1403636588718881368,,4.85878463489,-1.48822280225,0.979796947949
1555847867047098611,133,1403636588767881393,,4.8574880316,-1.49656827473,0.981813478469
1555847867091788640,134,1403636588818881273,,4.85551950548,-1.50696763638,0.983645353329
1555847867136792683,135,1403636588867881298,,4.85406399029,-1.51879741711,0.984825044623
1555847867186596354,136,1403636588918881177,,4.85098864372,-1.53216420477,0.98551435338
1555847867253865267,137,1403636588968881368,,4.84843101374,-1.5469158141,0.985667004546
1555847867340765790,138,1403636589019881248,,4.84521546524,-1.56357228333,0.985836718474
1555847867385631417,139,1403636589069881200,,4.84066484126,-1.58111973473,0.986682602759
1555847867436694126,140,1403636589167881250,,4.83247392413,-1.61968863927,0.989866132814
1555847867502264087,141,1403636589218881368,,4.82845219816,-1.64180617445,0.992362197309
1555847867547030451,142,1403636589268881320,,4.82427129361,-1.66416306906,0.995121546672
1555847867590002740,143,1403636589316881179,,4.8193374412,-1.68538999044,0.998105096811
1555847867687001099,144,1403636589366881370,,4.81492595284,-1.70777606441,1.00077011947
1555847867752827783,145,1403636589467881202,,4.80282161027,-1.75440057761,1.00471594994
1555847867797678517,146,1403636589517881393,,4.79549987144,-1.77743345897,1.00552069684
1555847867840759471,147,1403636589568881273,,4.78892923531,-1.80089882596,1.00596001516
1555847867888778977,148,1403636589619881391,,4.78225986091,-1.82427438251,1.00630604747
1555847867938354461,149,1403636589667881250,,4.77571126122,-1.8469168868,1.00626637434
1555847868002371514,150,1403636589716881275,,4.7728313992,-1.87077787075,1.00570255787
1555847868046493798,151,1403636589768881320,,4.76593906225,-1.89365563198,1.00547256525
1555847868093817879,152,1403636589819881200,,4.7598683234,-1.91685148805,1.00510575067
1555847868138667472,153,1403636589868881225,,4.7544118749,-1.93817513797,1.00444830614
1555847868186024394,154,1403636589919881343,,4.74832933911,-1.96059173175,1.0030760657
1555847868256370598,155,1403636589967881202,,4.74265239642,-1.98150137437,1.00063878066
1555847868299536819,156,1403636590019881248,,4.7376485654,-1.99824992828,0.999195455922
1555847868389122939,157,1403636590070881366,,4.73379333088,-2.01452900598,0.997007246396
1555847868438344484,158,1403636590119881391,,4.72945109513,-2.02920491201,0.994600442265
1555847868504017385,159,1403636590219881296,,4.72420993082,-2.05357669946,0.992841976955
1555847868547456319,160,1403636590268881320,,4.72260470689,-2.06233172422,0.993001531916
1555847868591334636,161,1403636590319881200,,4.72217042808,-2.06846537044,0.993513004355
1555847868641550189,162,1403636590367881298,,4.7221028745,-2.07133201934,0.994370561226
1555847868756909050,163,1403636590419881343,,4.72414158666,-2.07191055099,0.995287438377
1555847868839207891,164,1403636590569881200,,4.73438386314,-2.05676563743,0.99850763685
1555847868889538024,165,1403636590619881391,,4.73845302291,-2.04526088256,1.00023055463
1555847868940955798,166,1403636590671881198,,4.74420856539,-2.03231010912,1.00200469099
1555847869050696409,167,1403636590720881223,,4.7515856519,-2.0180002128,1.00373499666
1555847869094347869,168,1403636590768881320,,4.7575927824,-2.00162366214,1.00541710764
1555847869141780868,169,1403636590866881370,,4.77064842338,-1.9654649951,1.00712805207
1555847869187674529,170,1403636590921881198,,4.77795380106,-1.9447991868,1.00643138568
1555847869253847878,171,1403636590966881275,,4.78408248673,-1.92421959806,1.00613234125
1555847869297750656,172,1403636591017881393,,4.79006102731,-1.90084082668,1.00500620705
1555847869342011014,173,1403636591067881345,,4.79679515545,-1.87798084956,1.0038763213
1555847869440031390,174,1403636591119881391,,4.80062081193,-1.85399302412,1.00279059192
1555847869505491919,175,1403636591220881223,,4.81362653465,-1.80780767098,1.00004709961
1555847869550388244,176,1403636591267881393,,4.81830608192,-1.78638477277,0.999111168571
1555847869593953564,177,1403636591320881366,,4.82421613102,-1.76423552844,0.99810699418
1555847869640115488,178,1403636591368881225,,4.82821284384,-1.74409572713,0.996991568363
1555847869688781977,179,1403636591419881343,,4.83269211141,-1.72507870678,0.9949373697
1555847869755828607,180,1403636591470881223,,4.83343247296,-1.70731033351,0.992670933836
1555847869839998530,181,1403636591521881341,,4.83718572903,-1.69268010117,0.989580827849
1555847869889538266,182,1403636591619881391,,4.84017328642,-1.66944411275,0.981779243365
1555847869947770171,183,1403636591666881322,,4.84068977742,-1.66053363205,0.977847167511
1555847869999131453,184,1403636591718881368,,4.84181862149,-1.65275610172,0.973506542039
1555847870044470939,185,1403636591767881393,,4.84141851098,-1.64639995026,0.969461720019
1555847870089895360,186,1403636591818881273,,4.8413964995,-1.64217450366,0.965866773163
1555847870190124373,187,1403636591868881225,,4.840919287,-1.6396164332,0.963311558534
1555847870256491888,188,1403636591968881368,,4.84067358556,-1.63654213882,0.961290669458
1555847870300251299,189,1403636592020881175,,4.84025312881,-1.63459026894,0.96112378632
1555847870344096530,190,1403636592066881179,,4.83810983269,-1.63158178281,0.96135058962
1555847870389014365,191,1403636592117881298,,4.83640094928,-1.62722064474,0.961398413374
1555847870438115504,192,1403636592166881322,,4.83321983438,-1.62088669624,0.961355253924
1555847870503919468,193,1403636592217881202,,4.82945273529,-1.61293409534,0.960762329058
1555847870591882069,194,1403636592267881393,,4.815489578,-1.60080861688,0.960906870598
1555847870638378057,195,1403636592318881273,,4.8091724702,-1.59076902524,0.959919511992
1555847870688621140,196,1403636592368881225,,4.80090801904,-1.58026464427,0.95919755655
1555847870753473976,197,1403636592469881296,,4.78266205173,-1.56115638659,0.957729210593
1555847870797216286,198,1403636592518881320,,4.77241538558,-1.55343712602,0.957130925916
1555847870841198597,199,1403636592569881200,,4.76062831678,-1.54731138705,0.95687604772
1555847870941065081,200,1403636592619881391,,4.73385372029,-1.53920001689,0.958665393513
1555847871006612596,201,1403636592721881389,,4.70350976537,-1.53833622889,0.959174860779
1555847871049447338,202,1403636592770881175,,4.68752394968,-1.54178510137,0.958891290426
1555847871094195777,203,1403636592820881366,,4.67166729933,-1.5478143598,0.958081289287
1555847871140556379,204,1403636592869881391,,4.65622381552,-1.55570391212,0.95726536606
1555847871189698034,205,1403636592920881271,,4.6387380763,-1.56644714337,0.956586705863
1555847871298733117,206,1403636592967881202,,4.61355322304,-1.57512153524,0.957224654437
1555847871342688645,207,1403636593021881341,,4.59956433197,-1.5935489593,0.955507417959
1555847871386478156,208,1403636593067881345,,4.5882500838,-1.61320303732,0.953895566307
1555847871440065043,209,1403636593167881250,,4.56997594061,-1.6608435045,0.952437867568
1555847871508257918,210,1403636593218881368,,4.56453247029,-1.69023087798,0.952254237734
1555847871550154202,211,1403636593268881320,,4.56068377296,-1.72084393457,0.952874822243
1555847871637733885,212,1403636593319881200,,4.57274365999,-1.75691326954,0.952475578901
1555847871690150266,213,1403636593418881177,,4.5830965969,-1.81705890567,0.955384861864
1555847871754604581,214,1403636593467881202,,4.59084093707,-1.84426980501,0.956983164973
1555847871799741052,215,1403636593517881393,,4.60357185522,-1.86940818133,0.95783626088
1555847871842419585,216,1403636593566881179,,4.61844874148,-1.89151344103,0.957768287689
1555847871887937642,217,1403636593618881225,,4.63413730511,-1.90878797967,0.957324755821
1555847871937943158,218,1403636593667881250,,4.65243488209,-1.92202656118,0.955796954527
1555847872048722871,219,1403636593716881275,,4.690647571,-1.93896530695,0.951542841751
1555847872093399446,220,1403636593769881248,,4.70750898728,-1.94222820772,0.949054481513
1555847872232303655,221,1403636593917881250,,4.79939629895,-1.94543425353,0.93755408594
1555847872277460189,222,1403636594019881248,,4.82323675453,-1.91538057027,0.936357686816
1555847872326611291,223,1403636594068881273,,4.84381852638,-1.90149557582,0.936008363635
1555847872377146670,224,1403636594118881225,,4.86434288436,-1.88490425227,0.936162703421
1555847872431100651,225,1403636594167881250,,4.8823336265,-1.86638873444,0.936915828097
1555847872483667278,226,1403636594219881296,,4.90065662505,-1.84663457396,0.93750392828
1555847872552669100,227,1403636594267881393,,4.9149243902,-1.82586484735,0.937972688662
1555847872596536178,228,1403636594316881179,,4.92218693657,-1.80040600718,0.93816012171
1555847872642038879,229,1403636594368881225,,4.92691079139,-1.77249375268,0.9377020578
1555847872690129591,230,1403636594418881177,,4.92824962998,-1.74450596317,0.936775113111
1555847872754147794,231,1403636594469881296,,4.92657768416,-1.71551991179,0.935702215163
1555847872798833564,232,1403636594521881341,,4.9229564929,-1.68560139854,0.934670709173
1555847872843116761,233,1403636594568881273,,4.91582821065,-1.6561402385,0.93348090569
1555847872939778969,234,1403636594619881391,,4.89030576507,-1.62169546147,0.934247902982
1555847873006822225,235,1403636594719881296,,4.86532551229,-1.57103415869,0.931886841529
1555847873050782366,236,1403636594768881320,,4.85022640963,-1.55193076592,0.931018633545
1555847873094204865,237,1403636594819881200,,4.83339821179,-1.5381258421,0.930098559756
1555847873137465128,238,1403636594866881370,,4.81547140293,-1.53106216327,0.929174124499
1555847873187045426,239,1403636594918881177,,4.79548298249,-1.53010665723,0.927288650872
1555847873456849869,240,1403636595068881273,,4.70885618079,-1.55740072877,0.923179521814
1555847873502684477,241,1403636595218881368,,4.66096904446,-1.64554694736,0.917280629134
1555847873610419505,242,1403636595318881273,,4.63223166534,-1.71196777139,0.913643777447
1555847873658956196,243,1403636595368881225,,4.62321594471,-1.74454047978,0.913043004906
1555847873703455516,244,1403636595420881271,,4.62050733414,-1.77661635751,0.911557509603
1555847873753498265,245,1403636595466881275,,4.61983591269,-1.80321169547,0.910867932778
1555847873796313877,246,1403636595520881175,,4.62092536485,-1.82788871145,0.910603270413
1555847873840991640,247,1403636595570881366,,4.62759913199,-1.84646255184,0.91034128441
1555847873888911666,248,1403636595620881319,,4.63655002,-1.8593265852,0.910322241547
1555847873940594840,249,1403636595667881250,,4.64808971242,-1.86562794527,0.91003397151
1555847874243942001,250,1403636595866881370,,4.76416775522,-1.85642179067,0.90011108085
1555847874298021478,251,1403636596019881248,,4.79986854822,-1.78966758501,0.895947920304
1555847874367365241,252,1403636596069881200,,4.82849678818,-1.77194922515,0.892194659971
1555847874417074650,253,1403636596121881246,,4.85006334525,-1.75325107475,0.890227458241
1555847874460917448,254,1403636596169881343,,4.87103759259,-1.73895202376,0.888537737826
1555847874506882288,255,1403636596219881296,,4.88988572523,-1.72769326137,0.887654686025
1555847874549878129,256,1403636596270881175,,4.90782805348,-1.72204436508,0.887177562263
1555847874593753620,257,1403636596319881200,,4.92284223759,-1.72208409398,0.887911156641
1555847874639745203,258,1403636596369881391,,4.93767229902,-1.72907002431,0.88958558645
1555847874690006043,259,1403636596420881271,,4.94864313274,-1.74174581507,0.893512540443
1555847874935333864,260,1403636596667881250,,5.00597206593,-1.85615053603,0.922506367868
1555847875011404595,261,1403636596718881368,,5.02628126066,-1.88348292355,0.926367350462
1555847875055139864,262,1403636596768881320,,5.02954033511,-1.90175470966,0.930467365706
1555847875100197500,263,1403636596820881366,,5.03244477524,-1.91766006762,0.933455077915
1555847875144446277,264,1403636596869881391,,5.03376687541,-1.92864234175,0.934667761288
1555847875188810082,265,1403636596920881271,,5.03235000898,-1.93520989789,0.934908651055
1555847875254487983,266,1403636596970881223,,5.02832099582,-1.93697551934,0.933865962262
1555847875298060217,267,1403636597018881320,,5.02158436314,-1.93446590854,0.932443685885
1555847875341934026,268,1403636597070881366,,5.01197375844,-1.92803120155,0.930371001106
1555847875439280755,269,1403636597121881246,,4.98081368795,-1.91091607948,0.930116092633
1555847875503702823,270,1403636597218881368,,4.94141798276,-1.88023574332,0.925670510742
1555847875547688313,271,1403636597267881393,,4.91812637126,-1.86163316254,0.923743182355
1555847875591636055,272,1403636597318881273,,4.89509460725,-1.84239962421,0.922192196092
1555847875638105660,273,1403636597369881391,,4.8712717355,-1.82282205682,0.922147092016
1555847875688258295,274,1403636597419881343,,4.8481102884,-1.80468466912,0.923331138007
1555847875796980796,275,1403636597468881368,,4.79097502946,-1.77520933477,0.928486999265
1555847875841138044,276,1403636597519881248,,4.76598927449,-1.75919367904,0.930199945569
1555847875889535964,277,1403636597567881345,,4.74204910392,-1.74596267624,0.931367446468
1555847875947625475,278,1403636597669881343,,4.69304604698,-1.72508464055,0.932604371791
1555847876019168791,279,1403636597766881227,,4.65852418011,-1.71940767686,0.93141218933
1555847876102170752,280,1403636597817881345,,4.6399941012,-1.71999275111,0.930849511897
1555847876145437820,281,1403636597867881298,,4.63556759706,-1.72841734819,0.929055403687
1555847876189719035,282,1403636597917881250,,4.63442466532,-1.73970847449,0.927895240076
1555847876252530275,283,1403636597967881202,,4.6370436658,-1.75248021981,0.927082613332
1555847876296180867,284,1403636598017881393,,4.64367671648,-1.76596911644,0.926309973506
1555847876340750394,285,1403636598067881345,,4.65264104751,-1.77897623173,0.925651958945
1555847876386533541,286,1403636598116881370,,4.66307328413,-1.79091719532,0.92497166578
1555847876503520979,287,1403636598217881202,,4.71154892273,-1.82029401621,0.919978072887
1555847876548557288,288,1403636598267881393,,4.72743416253,-1.82875026169,0.917777541995
1555847876591078413,289,1403636598320881366,,4.74372733106,-1.83580289199,0.914486278777
1555847876640469349,290,1403636598369881391,,4.75860189646,-1.84055548365,0.909988497742
1555847876687930107,291,1403636598420881271,,4.77172969911,-1.84381657748,0.904184690212
1555847876754402014,292,1403636598470881223,,4.78165883446,-1.8441160451,0.898220416444
1555847876841911774,293,1403636598520881175,,4.79536876364,-1.84517628203,0.890403001098
1555847876888998870,294,1403636598568881273,,4.79807434845,-1.84133924956,0.88315419223
1555847876939824240,295,1403636598670881271,,4.79367685764,-1.8279376929,0.867991596679
1555847877006921306,296,1403636598719881296,,4.78653443504,-1.81881955384,0.861135738247
1555847877048890407,297,1403636598767881393,,4.77832701895,-1.80959107501,0.854220613485
1555847877093861167,298,1403636598819881200,,4.76916641221,-1.79958303294,0.846219318183
1555847877138452539,299,1403636598866881370,,4.75777840414,-1.78967271308,0.838152180819
1555847877254112372,300,1403636598967881202,,4.72686987533,-1.76681584025,0.818044293389
1555847877297133628,301,1403636599018881320,,4.71750399102,-1.75807368526,0.805313279334
1555847877340372060,302,1403636599068881273,,4.70873439521,-1.75041945116,0.792391219316
1555847877386226140,303,1403636599118881225,,4.6996875221,-1.74343419133,0.779586312179
1555847877437197863,304,1403636599166881322,,4.69327875711,-1.7381089442,0.767197910565
1555847877504339687,305,1403636599218881368,,4.68624403857,-1.73221128279,0.756574011416
1555847877592976012,306,1403636599269881248,,4.67856427678,-1.72595556995,0.748016084095
1555847877644126890,307,1403636599318881273,,4.67649516665,-1.72229315928,0.740199640802
1555847877691275102,308,1403636599419881343,,4.67178803165,-1.71725937955,0.726501060544
1555847877756031475,309,1403636599469881296,,4.66935857796,-1.71522005783,0.720352873922
1555847877838161009,310,1403636599566881179,,4.66286339802,-1.71314556673,0.70927296236
1555847877891913198,311,1403636599618881225,,4.65895250098,-1.71262630725,0.704190607964
1555847878001046951,312,1403636599718881368,,4.6507400927,-1.71057743632,0.695979162297
1555847878044957995,313,1403636599768881320,,4.64923722307,-1.70983956541,0.691971163565
1555847878088313171,314,1403636599819881200,,4.64771696256,-1.70909561651,0.687872842738
1555847878137611815,315,1403636599868881225,,4.64769354051,-1.7078628679,0.685150015127
1555847878189559362,316,1403636599917881250,,4.64980540326,-1.70733876709,0.683781785509
1555847878300267678,317,1403636599966881275,,4.65376940586,-1.70762401193,0.68235931531
1555847878343929923,318,1403636600019881248,,4.65576668423,-1.7073913281,0.680953004252
1555847878387876776,319,1403636600068881273,,4.65700483562,-1.70669885619,0.680411734242
1555847878437374648,320,1403636600167881250,,4.6572573215,-1.70557136922,0.679499848143
1555847878503634118,321,1403636600217881202,,4.65760316823,-1.70402931138,0.678259900465
1555847878547054828,322,1403636600268881320,,4.65880177691,-1.70355757907,0.677958067454
1555847878640968626,323,1403636600319881200,,4.65889343836,-1.70326821658,0.677877945021
1555847878689881629,324,1403636600367881298,,4.65884096356,-1.70334696534,0.677743742286
1555847878756766349,325,1403636600469881296,,4.65981605616,-1.70348575836,0.67744096985
1555847878839060758,326,1403636600567881345,,4.65980490535,-1.70351252379,0.677433230927
1555847878888611348,327,1403636600618881225,,4.6598206477,-1.70346516473,0.677424332912
1555847879002462715,328,1403636600669881343,,4.65983957961,-1.70343236071,0.677463648881
1555847879046266150,329,1403636600718881368,,4.65983372707,-1.70344307089,0.677452673382
1555847879092400923,330,1403636600769881248,,4.65984009464,-1.703419635,0.677440212695
1555847879140836059,331,1403636600870881319,,4.65983148821,-1.70345259311,0.677459709974
1555847879186894262,332,1403636600921881198,,4.65984918855,-1.70339805929,0.677447049883
1555847879252011400,333,1403636600967881202,,4.65985477837,-1.70338582555,0.677453382491
1555847879297177678,334,1403636601018881320,,4.65984557878,-1.70340017092,0.677430973149
1555847879389985433,335,1403636601067881345,,4.65983110709,-1.70343108322,0.677413006145
1555847879440092265,336,1403636601120881319,,4.65984370334,-1.70341854672,0.677458402671
1555847879506537523,337,1403636601220881223,,4.6598130652,-1.70349027464,0.677433379086
1555847879549907730,338,1403636601269881248,,4.65983614133,-1.7034376487,0.677455121513
1555847879593994828,339,1403636601319881200,,4.65985074419,-1.70339799294,0.677455725386
1555847879638706900,340,1403636601369881391,,4.65983594726,-1.70346003541,0.677500385165
1555847879756577635,341,1403636601469881296,,4.65983949331,-1.70343683539,0.677472426887
1555847879800462806,342,1403636601520881175,,4.65984120193,-1.70342293871,0.677453327257
1555847879844640186,343,1403636601569881200,,4.65981884431,-1.70348323343,0.677451535867
1555847879889724904,344,1403636601619881391,,4.65888834537,-1.70317582048,0.6776576919
1555847880004222464,345,1403636601666881322,,4.65890850111,-1.70311243154,0.677640598273
1555847880048549919,346,1403636601717881202,,4.65888268982,-1.70320007204,0.67767587973
1555847880093524346,347,1403636601766881227,,4.65891823004,-1.70308537263,0.677639676797
1555847880140183100,348,1403636601818881273,,4.65982836863,-1.70348540208,0.677509985584
1555847880188281947,349,1403636601918881177,,4.65891898415,-1.70309551748,0.677664959266
1555847880254315888,350,1403636601967881202,,4.65981936464,-1.70351613392,0.67752262381
1555847880297946566,351,1403636602018881320,,4.65890474274,-1.70312523632,0.677645824938
1555847880388895051,352,1403636602068881273,,4.65889923584,-1.70313690351,0.6776387898
1555847880437204516,353,1403636602119881391,,4.65890330601,-1.70313130601,0.677650255955
1555847880504594800,354,1403636602216881275,,4.65892067842,-1.70309329955,0.67766996473
1555847880547937889,355,1403636602266881227,,4.65890503938,-1.70313083662,0.677659104044
1555847880591177573,356,1403636602316881179,,4.65889899181,-1.70313689293,0.677637385389
1555847880638370798,357,1403636602366881370,,4.65890510385,-1.70313097058,0.677659746755
1555847880752177741,358,1403636602419881343,,4.65890463491,-1.70313319379,0.677661694486
1555847880795940699,359,1403636602466881275,,4.65893389313,-1.70306179231,0.677679580261
1555847880841750113,360,1403636602518881320,,4.65892221086,-1.70309767451,0.677687707796
1555847880888481525,361,1403636602567881345,,4.65984252286,-1.70343559686,0.677487025299
1555847880939421067,362,1403636602667881250,,4.65891350303,-1.70310331348,0.677650052196
1555847881004476764,363,1403636602718881368,,4.65891601754,-1.70309638448,0.677649947743
1555847881093483144,364,1403636602771881341,,4.65893835057,-1.70305388056,0.677688448862
1555847881141676686,365,1403636602820881366,,4.65893380983,-1.70305502318,0.677665089301
1555847881189802374,366,1403636602921881198,,4.65894042134,-1.70304771363,0.677687409072
1555847881255700499,367,1403636602969881296,,4.65891785037,-1.70311000068,0.677688531809
1555847881300582422,368,1403636603020881175,,4.65892502402,-1.70308361016,0.677674517561
1555847881344096640,369,1403636603070881366,,4.65893452152,-1.70306918012,0.677698441259
1555847881440507184,370,1403636603118881225,,4.65985726158,-1.70343554454,0.677570421845
1555847881506572984,371,1403636603219881296,,4.6598392326,-1.70345169561,0.677501725819
1555847881589794005,372,1403636603318881273,,4.65893905532,-1.70305483355,0.677694415482
1555847881640494075,373,1403636603368881225,,4.6589449677,-1.70306261646,0.677744033896
1555847881689859674,374,1403636603420881271,,4.65987038717,-1.70339508572,0.677560992822
1555847881799508047,375,1403636603471881389,,4.65894008234,-1.70306544242,0.677722206621
1555847881842835385,376,1403636603521881341,,4.65893969896,-1.70308783835,0.677766421451
1555847881890705282,377,1403636603568881273,,4.65893745764,-1.70307789487,0.677733126508
1555847881946953145,378,1403636603669881343,,4.65894678917,-1.70306402116,0.677757264022
1555847882017981076,379,1403636603768881320,,4.65893776521,-1.7030661082,0.677710456975
1555847882105915085,380,1403636603819881200,,4.65893941782,-1.70306560175,0.677718771466
1555847882150945847,381,1403636603867881298,,4.6589478316,-1.70306146042,0.677757866672
1555847882195969145,382,1403636603918881177,,4.65987773448,-1.70341440135,0.677642632144
1555847882254382567,383,1403636603968881368,,4.65894328155,-1.70307163568,0.677753160862
1555847882298573345,384,1403636604019881248,,4.65893752292,-1.70308356068,0.677745231537
1555847882342617582,385,1403636604068881273,,4.65895777705,-1.70306721917,0.677826149907
1555847882387724928,386,1403636604118881225,,4.65892812492,-1.70309575924,0.677717248639
1555847882503766778,387,1403636604217881202,,4.65892858548,-1.70310610334,0.677741283047
1555847882547639954,388,1403636604267881393,,4.65986195732,-1.7034403723,0.677607028013
1555847882592563563,389,1403636604318881273,,4.65896947431,-1.70303317475,0.677821914467
1555847882639631519,390,1403636604368881225,,4.65986217611,-1.70341488514,0.677555477527
1555847882686785691,391,1403636604418881177,,4.65893262807,-1.70308227147,0.677714827292
1555847882753774296,392,1403636604468881368,,4.65896667561,-1.70303566235,0.677811208121
1555847882796570343,393,1403636604517881393,,4.65891793852,-1.70311797124,0.677705539496
1555847882889487196,394,1403636604568881273,,4.6589674614,-1.70302079713,0.677784870362
1555847882941598158,395,1403636604618881225,,4.65894960539,-1.70306805857,0.67778158401
1555847883006032567,396,1403636604720881223,,4.65894069494,-1.70306974263,0.677734584077
1555847883049980756,397,1403636604768881320,,4.65892907889,-1.7030938952,0.677718792924
1555847883093617843,398,1403636604820881366,,4.65895190352,-1.70303079056,0.677717415587
1555847883139568780,399,1403636604870881319,,4.65894714927,-1.70307475831,0.677781544108
1555847883255251997,400,1403636604970881223,,4.65895114191,-1.70303648328,0.677724890685
1555847883300812419,401,1403636605021881341,,4.65893829271,-1.70307143257,0.677724473316
1555847883344492340,402,1403636605070881366,,4.65987847695,-1.70337781826,0.677571065636
1555847883389713439,403,1403636605120881319,,4.65895483694,-1.7030318476,0.677736225495
1555847883441169296,404,1403636605168881177,,4.65894270365,-1.70306432484,0.677734744093
1555847883537334468,405,1403636605218881368,,4.65988152215,-1.70338557008,0.67760437573
1555847883587354550,406,1403636605268881320,,4.65895228952,-1.70303714108,0.677732755397
1555847883639706423,407,1403636605318881273,,4.65895411899,-1.70304059421,0.677750273306
1555847883686140880,408,1403636605368881225,,4.65893956356,-1.70305739235,0.677702594527
1555847883752934008,409,1403636605467881202,,4.65896660376,-1.7030227761,0.677784109608
1555847883797008096,410,1403636605518881320,,4.65987817112,-1.70337104176,0.677555297779
1555847883841409379,411,1403636605568881273,,4.65894720613,-1.70303094825,0.677691127718
1555847883946842603,412,1403636605619881391,,4.65895226642,-1.70306065266,0.677781322358
1555847883999958703,413,1403636605719881296,,4.6589533147,-1.70305653136,0.677778725787
1555847884040766796,414,1403636605769881248,,4.65895323614,-1.70304291015,0.677750067745
1555847884090746967,415,1403636605818881273,,4.65890843813,-1.70312611525,0.677668581166
1555847884140481494,416,1403636605870881319,,4.65895966252,-1.703029169,0.67775801987
1555847884189298072,417,1403636605919881343,,4.6598640976,-1.70341752968,0.67757184194
1555847884246992569,418,1403636605967881202,,4.65892615684,-1.70310376143,0.677722671825
1555847884339326112,419,1403636606020881175,,4.65893896476,-1.70309054555,0.677767868747
1555847884388682282,420,1403636606070881366,,4.65893405596,-1.70307008804,0.677697683885
1555847884438824473,421,1403636606166881322,,4.65893401161,-1.70307760546,0.677713002186
1555847884504210759,422,1403636606217881202,,4.65985791833,-1.70342199094,0.677546070857
1555847884547503715,423,1403636606268881320,,4.658949185,-1.70304681502,0.677735201455
1555847884591820399,424,1403636606318881273,,4.65894847078,-1.70306146116,0.677761489913
1555847884690032279,425,1403636606368881225,,4.65986677105,-1.70339716276,0.677544806206
1555847884756263244,426,1403636606468881368,,4.65892983491,-1.70308756707,0.67770996975
1555847884799547650,427,1403636606518881320,,4.65986981543,-1.70341222044,0.677593242882
1555847884843213593,428,1403636606567881345,,4.65894824286,-1.70305272601,0.677742106018
1555847884890731659,429,1403636606619881391,,4.65894938937,-1.70305962734,0.677762896523
1555847884949336535,430,1403636606670881271,,4.65986825866,-1.70339773448,0.677554418907
1555847885047898775,431,1403636606716881275,,4.65987818127,-1.70339414591,0.677603208288
1555847885091225702,432,1403636606767881393,,4.65987475256,-1.70339227384,0.677579903212
1555847885141022697,433,1403636606868881225,,4.65895398436,-1.70303339158,0.677734592594
1555847885186693974,434,1403636606919881343,,4.65895570989,-1.70301443992,0.67770511844
1555847885252263631,435,1403636606967881202,,4.65895636792,-1.70301516174,0.677710341657
1555847885297649791,436,1403636607017881393,,4.65988340458,-1.70335262343,0.67754680385
1555847885340485480,437,1403636607066881179,,4.65987647517,-1.70337246144,0.677548629041
1555847885438700230,438,1403636607118881225,,4.6598770299,-1.7034037737,0.677616626145
1555847885505230599,439,1403636607218881368,,4.6598673975,-1.70339712154,0.67754827018
1555847885547794020,440,1403636607269881248,,4.65987506044,-1.70338751987,0.677571801337
1555847885592195149,441,1403636607319881200,,4.65896078875,-1.70302087676,0.677747226451
1555847885640233715,442,1403636607366881370,,4.65894955032,-1.70305630709,0.677756931386
1555847885757647514,443,1403636607471881389,,4.65893050808,-1.70307866686,0.677695350281
1555847885840473116,444,1403636607521881341,,4.65895685103,-1.70303743073,0.677759201254
1555847885890970271,445,1403636607620881319,,4.65893976924,-1.70307141399,0.677732800767
1555847885946848167,446,1403636607670881271,,4.65894042175,-1.70305904381,0.677710877253
1555847886009748825,447,1403636607721881389,,4.65894499982,-1.70305884336,0.67773640105
1555847886055076132,448,1403636607768881320,,4.65896428837,-1.70300641954,0.677737112494
1555847886100678628,449,1403636607819881200,,4.6589361017,-1.7030736379,0.677716626894
1555847886145457984,450,1403636607868881225,,4.65894142265,-1.70306133336,0.677721290186
1555847886188461526,451,1403636607918881177,,4.65894889574,-1.70305209629,0.677744500972
1555847886253571606,452,1403636607968881368,,4.65894555701,-1.70306224051,0.677746594283
1555847886297959498,453,1403636608019881248,,4.65895207343,-1.70304393828,0.677745609212
1555847886342760655,454,1403636608068881273,,4.65986369132,-1.70340765291,0.677549083424
1555847886437107233,455,1403636608118881225,,4.65896794667,-1.70299601263,0.677736286635
1555847886505153307,456,1403636608218881368,,4.65895068394,-1.70303116977,0.67771129099
1555847886547116850,457,1403636608268881320,,4.6589340329,-1.7030801549,0.677718403095
1555847886591498381,458,1403636608318881273,,4.65894192394,-1.70306146222,0.677724397324
1555847886639853469,459,1403636608368881225,,4.65986970479,-1.70340046459,0.677568267041
1555847886690511790,460,1403636608419881343,,4.65985954754,-1.70341813715,0.677547319869
1555847886757146682,461,1403636608469881296,,4.65894572214,-1.70304557222,0.677713007146
1555847886844698932,462,1403636608521881341,,4.65894427915,-1.7030714076,0.677758341047
1555847886890135640,463,1403636608566881179,,4.65988981864,-1.70335840899,0.677595128738
1555847886939260116,464,1403636608669881343,,4.65894783666,-1.70303949435,0.677712399738
1555847887005449895,465,1403636608720881223,,4.6589384768,-1.70308364026,0.677750801121
1555847887050172184,466,1403636608766881227,,4.65895273223,-1.70305217603,0.677766404291
1555847887095543912,467,1403636608820881366,,4.65986922567,-1.70339133502,0.677546643692
1555847887190268292,468,1403636608870881319,,4.65985304507,-1.7034356753,0.67754680235
1555847887257210807,469,1403636608970881223,,4.65893710982,-1.70308952081,0.677755235822
1555847887300496405,470,1403636609021881341,,4.65895515333,-1.70304260297,0.677760294607
1555847887344458283,471,1403636609070881366,,4.65986508965,-1.70340332251,0.677548037297
1555847887389602454,472,1403636609121881246,,4.65894539632,-1.70305597512,0.677732706948
1555847887439340398,473,1403636609169881343,,4.65895710587,-1.70303643544,0.67775858373
1555847887548141805,474,1403636609220881223,,4.65894419961,-1.7030516554,0.677716979713
1555847887592581888,475,1403636609270881175,,4.65986911636,-1.7033878983,0.677538906607
1555847887638181268,476,1403636609319881200,,4.65894845937,-1.70305831383,0.677754906384
1555847887689940822,477,1403636609420881271,,4.65895323636,-1.70304658783,0.677757686263
1555847887741383212,478,1403636609470881223,,4.65893871264,-1.70306010611,0.67770339387
1555847887789871831,479,1403636609517881393,,4.65986419259,-1.70340724959,0.677551088249
1555847887840338677,480,1403636609567881345,,4.65987632636,-1.70339137226,0.677586953167
1555847887946492650,481,1403636609620881319,,4.65895197438,-1.70305112105,0.677759925023
1555847887998420963,482,1403636609720881223,,4.65987073003,-1.70339790701,0.677568778841
1555847888040167795,483,1403636609766881227,,4.658966388,-1.70303380904,0.677805739504
1555847888091240749,484,1403636609818881273,,4.65896229556,-1.70303759312,0.677790387912
1555847888140308652,485,1403636609867881298,,4.65895466815,-1.70305397534,0.677781100608
1555847888186343517,486,1403636609916881322,,4.65985240095,-1.70344745955,0.677567560408
1555847888252938417,487,1403636609966881275,,4.65895126338,-1.70308609587,0.677828341128
1555847888296474747,488,1403636610019881248,,4.65986423033,-1.70340446497,0.677545534723
1555847888341967846,489,1403636610069881200,,4.65988409297,-1.70339606359,0.677640678194
1555847888389949673,490,1403636610117881298,,4.65894421665,-1.70307597118,0.677767439298
1555847888439079043,491,1403636610167881250,,4.6598589459,-1.70343567209,0.67758022941
1555847888527722640,492,1403636610219881296,,4.65892516382,-1.70315619666,0.677825657864
1555847888603143529,493,1403636610318881273,,4.65893195202,-1.70312849673,0.677806743356
1555847888646760879,494,1403636610367881298,,4.65892459989,-1.70316292126,0.67783639265
1555847888691776206,495,1403636610418881177,,4.65982115079,-1.70350657114,0.677512937057
1555847888742113421,496,1403636610467881202,,4.65980942091,-1.70352000256,0.677474300859
1555847888787885553,497,1403636610518881320,,4.65894558051,-1.70303394683,0.677688127606
1555847888839950893,498,1403636610568881273,,4.65895706273,-1.70299403174,0.677670517841
1555847888890635045,499,1403636610619881391,,4.65893842723,-1.70305241833,0.677685854814
1555847889008341818,500,1403636610719881296,,4.65888361015,-1.70312977035,0.677535499493
1555847889042833583,501,1403636610767881393,,4.6589559991,-1.7030375733,0.677754669351
1555847889090338353,502,1403636610820881366,,4.65890235076,-1.70312313223,0.67762791608
1555847889141684150,503,1403636610870881319,,4.65975780605,-1.70358613162,0.677318867527
1555847889191239964,504,1403636610919881343,,4.65885322383,-1.70321266244,0.677535029611
1555847889299557028,505,1403636610968881368,,4.65981364619,-1.70342977721,0.677311394514
1555847889343416345,506,1403636611020881175,,4.65986788399,-1.70334654921,0.677446292747
1555847889388846583,507,1403636611068881273,,4.65980610384,-1.70345549829,0.677321931343
1555847889441074193,508,1403636611119881391,,4.65976878793,-1.70353017912,0.677265208733
1555847889505081179,509,1403636611219881296,,4.65982103021,-1.70344768339,0.677390298636
1555847889549169610,510,1403636611268881320,,4.65979076119,-1.70347945312,0.677284630342
1555847889592420473,511,1403636611319881200,,4.65981709491,-1.70342183482,0.677314483328
1555847889690535835,512,1403636611368881225,,4.65984491378,-1.70335804979,0.677339986205
1555847889756623181,513,1403636611468881368,,4.65885752217,-1.70318530658,0.677502728322
1555847889800161986,514,1403636611521881341,,4.65975132415,-1.70356363122,0.677235564454
1555847889845083772,515,1403636611566881179,,4.65981759377,-1.7034281516,0.677330388457
1555847889891714783,516,1403636611620881319,,4.65998496615,-1.70286064165,0.677103581365
1555847889941996163,517,1403636611668881177,,4.65997871607,-1.70284478228,0.677035371999
1555847890039076655,518,1403636611718881368,,4.65993284427,-1.70294888464,0.676991039497
1555847890088478583,519,1403636611768881320,,4.65994947085,-1.70292789032,0.677041741544
1555847890140993299,520,1403636611819881200,,4.65995605694,-1.70292125509,0.67706530518
1555847890188249436,521,1403636611921881198,,4.6599442028,-1.7029206834,0.676996999566
1555847890253068877,522,1403636611968881368,,4.65995803972,-1.70288923596,0.677010277157
1555847890298017931,523,1403636612018881320,,4.66000611906,-1.70280654347,0.677111422333
1555847890341604823,524,1403636612069881200,,4.65996164539,-1.70290468162,0.677062654586
1555847890440366213,525,1403636612118881225,,4.65991910224,-1.70296379905,0.676944093187
1555847890506246651,526,1403636612219881296,,4.659044005,-1.7025228683,0.677187624144
1555847890548952450,527,1403636612269881248,,4.6589926465,-1.7026333409,0.67712541051
1555847890594276100,528,1403636612318881273,,4.65896382581,-1.7026913537,0.677082271616
1555847890638337676,529,1403636612366881370,,4.65993956753,-1.70290728933,0.676943041486
1555847890688390998,530,1403636612418881177,,4.65908387096,-1.70244240543,0.677246876151
1555847890798124527,531,1403636612468881368,,4.65996596188,-1.70286874066,0.677012726704
1555847890843320895,532,1403636612518881320,,4.65995719674,-1.70285105036,0.676926497218
1555847890890304265,533,1403636612567881345,,4.65995779088,-1.70289094696,0.677012408509
1555847890938922535,534,1403636612668881177,,4.65996763552,-1.70284839767,0.676980111778
1555847891004372928,535,1403636612719881296,,4.6599527767,-1.70289738128,0.676997330775
1555847891048103602,536,1403636612767881393,,4.65997937994,-1.70282015369,0.67698817227
1555847891141034203,537,1403636612817881345,,4.65905095471,-1.70251526761,0.677211249275
1555847891192595999,538,1403636612867881298,,4.65998059321,-1.70284802061,0.677052701985
1555847891256309144,539,1403636612967881202,,4.65903433092,-1.70255228256,0.677193709369
1555847891300211558,540,1403636613020881175,,4.65998273352,-1.70284249824,0.677053394734
1555847891343874886,541,1403636613070881366,,4.66000426546,-1.70279663287,0.677080417927
1555847891440523284,542,1403636613121881246,,4.65998603367,-1.70284544045,0.677078170485
1555847891505652930,543,1403636613220881223,,4.65905175281,-1.70256041048,0.677309185474
1555847891549280729,544,1403636613270881175,,4.65906697512,-1.70250789367,0.677286710669
1555847891593538083,545,1403636613318881273,,4.65904289794,-1.70258333466,0.67730648067
1555847891639425515,546,1403636613367881298,,4.65906762787,-1.70248700237,0.677247176271
1555847891689377742,547,1403636613418881177,,4.65909407716,-1.70245149907,0.677323492235
1555847891755072963,548,1403636613470881223,,4.65907097166,-1.70250976964,0.677313225861
1555847891843128873,549,1403636613517881393,,4.65906410009,-1.70249896538,0.677251953891
1555847891890334824,550,1403636613570881366,,4.65905201201,-1.70254958905,0.677288258643
1555847891947595090,551,1403636613670881271,,4.66000070906,-1.70283174524,0.677132936426
1555847892011751382,552,1403636613720881223,,4.65908268456,-1.70247765659,0.677313103156
1555847892055763212,553,1403636613766881227,,4.65998855892,-1.70286116986,0.677125020242
1555847892099137873,554,1403636613820881366,,4.6599912643,-1.7028654698,0.67714923968
1555847892144768083,555,1403636613869881391,,4.6600187566,-1.70281173531,0.677193736438
1555847892190720672,556,1403636613921881198,,4.65907720877,-1.70250635608,0.677341484492
1555847892256057009,557,1403636613969881296,,4.65906359817,-1.70251699509,0.677286421221
1555847892338384090,558,1403636614066881179,,4.65908380499,-1.70247224194,0.67730824333
1555847892387658271,559,1403636614117881298,,4.66000387237,-1.70284175368,0.677171563074
1555847892503469713,560,1403636614216881275,,4.65906453809,-1.70251828617,0.677294415852
1555847892547225228,561,1403636614266881227,,4.65908731313,-1.70248611135,0.677356813586
1555847892592362305,562,1403636614318881273,,4.65906190441,-1.70252471963,0.677292814555
1555847892640042517,563,1403636614368881225,,4.65906342743,-1.70251536306,0.677282076977
1555847892689778657,564,1403636614420881271,,4.659077095,-1.70248530989,0.677297286081
1555847892755732780,565,1403636614467881202,,4.6600124996,-1.7028105883,0.677155926559
1555847892841096606,566,1403636614520881175,,4.65907100737,-1.70250880637,0.677311434684
1555847892887550135,567,1403636614567881345,,4.65905384439,-1.70253392421,0.677266218526
1555847892939928912,568,1403636614616881370,,4.6590691257,-1.70252233333,0.677328771974
1555847893004371021,569,1403636614716881275,,4.65907967193,-1.70248416704,0.6773095147
1555847893046970991,570,1403636614768881320,,4.65908545294,-1.70248473334,0.677343426555
1555847893092958526,571,1403636614818881273,,4.65905382117,-1.70252785774,0.677253533385
1555847893187749481,572,1403636614867881298,,4.6590679576,-1.70252810042,0.677334091698
1555847893253998219,573,1403636614968881368,,4.65906338116,-1.70250596474,0.677262366489
1555847893297884526,574,1403636615018881320,,4.65907475648,-1.70249974337,0.677313911418
1555847893341586204,575,1403636615067881345,,4.65907677156,-1.70248654743,0.677298015336
1555847893391518688,576,1403636615119881391,,4.65905767041,-1.70252360276,0.677266526128
1555847893506191208,577,1403636615220881223,,4.65905236076,-1.70252742367,0.677244365202
1555847893549685314,578,1403636615268881320,,4.65906844919,-1.70249782927,0.677274231429
1555847893594112260,579,1403636615319881200,,4.66002433518,-1.70278435015,0.677168657833
1555847893639653296,580,1403636615366881370,,4.65904693923,-1.70252749083,0.677213803974
1555847893690119874,581,1403636615420881271,,4.65907692159,-1.7025051422,0.677337345949
1555847893756289413,582,1403636615470881223,,4.65904958485,-1.70254819294,0.67727162452
1555847893843790683,583,1403636615521881341,,4.65907087515,-1.70250874377,0.677310556299
1555847893889795314,584,1403636615566881179,,4.65907087286,-1.70250215904,0.677296916748
1555847893948960644,585,1403636615668881177,,4.65907233359,-1.70249476857,0.677289895251
1555847893997252672,586,1403636615720881223,,4.65906266376,-1.70253038917,0.677308847639
1555847894039981937,587,1403636615769881248,,4.65905163137,-1.70254604775,0.677278774628
1555847894090121201,588,1403636615820881366,,4.65905453963,-1.70252994955,0.677261930583
1555847894189136853,589,1403636615870881319,,4.65998497474,-1.7028617891,0.677106004479
1555847894254796760,590,1403636615967881202,,4.65904982525,-1.70254471222,0.677265782931
1555847894298459540,591,1403636616019881248,,4.65908261014,-1.70247541513,0.677308043169
1555847894342927771,592,1403636616069881200,,4.65903730588,-1.70257934915,0.677266564772
1555847894392410075,593,1403636616121881246,,4.65908311686,-1.70247430384,0.677308613143
1555847894441458818,594,1403636616169881343,,4.65906075389,-1.70252909919,0.67729536222
1555847894539144009,595,1403636616219881296,,4.65906692471,-1.70249757389,0.677265069919
1555847894587781845,596,1403636616268881320,,4.65907585847,-1.70248889372,0.677297699733
1555847894639090474,597,1403636616319881200,,4.65905772171,-1.70255269513,0.677327021833
1555847894689486000,598,1403636616368881225,,4.65905625697,-1.70252359808,0.677258512293
1555847894755552243,599,1403636616468881368,,4.65905574607,-1.70253626071,0.677281822794
1555847894800859044,600,1403636616520881175,,4.65906716487,-1.70250980962,0.677291750091
1555847894890379095,601,1403636616569881200,,4.65906586206,-1.70252260378,0.677310848756
1555847894942217827,602,1403636616620881319,,4.65906773962,-1.70250632618,0.677287796357
1555847894997136220,603,1403636616720881223,,4.65907263734,-1.70251522349,0.677333945829
1555847895041340710,604,1403636616769881248,,4.65907040482,-1.70249335729,0.677276052112
1555847895087966580,605,1403636616817881345,,4.65906322179,-1.7025179236,0.67728621119
1555847895139314092,606,1403636616868881225,,4.65907234004,-1.70248371372,0.677267055473
1555847895253708948,607,1403636616967881202,,4.65907786041,-1.70247125992,0.677272546415
1555847895298700370,608,1403636617018881320,,4.65904698621,-1.70256021376,0.677281784633
1555847895343108169,609,1403636617068881273,,4.65906758586,-1.70250593959,0.677286125559
1555847895390532283,610,1403636617119881391,,4.65907580759,-1.70248528721,0.677289948373
1555847895439181134,611,1403636617170881271,,4.65997833491,-1.70289898434,0.677145375793
1555847895550297979,612,1403636617219881296,,4.66000968539,-1.70280301096,0.677124308729
1555847895594254160,613,1403636617268881320,,4.65997795876,-1.70288256264,0.677109261703
1555847895641416562,614,1403636617367881298,,4.6590722509,-1.70248441636,0.677268004667
1555847895689767613,615,1403636617420881271,,4.65905900382,-1.70253935872,0.677306682926
1555847895755961135,616,1403636617468881368,,4.65907935633,-1.70246242773,0.677262741326
1555847895837991436,617,1403636617567881345,,4.65907507203,-1.70249133185,0.677298291453
1555847895938773198,618,1403636617618881225,,4.65907217917,-1.70248737839,0.677273727839
1555847896004981312,619,1403636617719881296,,4.65909024234,-1.7024529449,0.677304766537
1555847896048901650,620,1403636617768881320,,4.65907499929,-1.70249753147,0.677310709101
1555847896092771757,621,1403636617819881200,,4.65906900715,-1.70250214284,0.677286317543
1555847896137760429,622,1403636617869881391,,4.65906711085,-1.70250877282,0.677289298614
1555847896189552195,623,1403636617917881250,,4.65907808393,-1.70248029375,0.6772925062
1555847896287250360,624,1403636617968881368,,4.65999628848,-1.70284820551,0.67714196504
1555847896341378558,625,1403636618019881248,,4.65907602131,-1.70247640292,0.677272774094
1555847896390714721,626,1403636618066881179,,4.65907848638,-1.70247955117,0.677293248666
1555847896441278610,627,1403636618168881177,,4.65906885744,-1.70250278631,0.677286801264
1555847896505344050,628,1403636618220881223,,4.65999405047,-1.70285658873,0.677146639344
1555847896549541062,629,1403636618268881320,,4.65999120279,-1.70284256634,0.677101494955
1555847896640266556,630,1403636618319881200,,4.65907050747,-1.70250419158,0.677299053611
1555847896689841656,631,1403636618368881225,,4.65907673633,-1.70249301871,0.677311207541
1555847896755967847,632,1403636618468881368,,4.65906898465,-1.70251438004,0.677311513996
1555847896837715451,633,1403636618567881345,,4.65907501667,-1.7024859563,0.677286853921
1555847896889632257,634,1403636618617881298,,4.65906848922,-1.70249638576,0.677271471009
1555847896992069111,635,1403636618667881250,,4.65906640649,-1.70251194219,0.677291868484
1555847897040171056,636,1403636618719881296,,4.65907381615,-1.70250068791,0.677310540766
1555847897090404691,637,1403636618767881393,,4.66000030256,-1.70283241269,0.677132015595
1555847897139620512,638,1403636618820881366,,4.65907122051,-1.70250422932,0.677303169827
1555847897187697663,639,1403636618916881322,,4.65907917442,-1.70248454687,0.67730748319
1555847897253364135,640,1403636618967881202,,4.65907805654,-1.70249209795,0.677316778797
1555847897296918311,641,1403636619016881227,,4.65999617401,-1.70284040573,0.677125175841
1555847897388933262,642,1403636619069881200,,4.65906645014,-1.70251180553,0.677291832818
1555847897438998919,643,1403636619119881391,,4.6590730167,-1.7024931427,0.67729039921
1555847897505508882,644,1403636619219881296,,4.65908181433,-1.70246916462,0.677290601732
1555847897549083274,645,1403636619268881320,,4.65907620324,-1.70249182567,0.677305719608
1555847897592775730,646,1403636619317881345,,4.65999165148,-1.70285696311,0.677133828189
1555847897640036613,647,1403636619367881298,,4.65999805603,-1.7028460742,0.677147564454
1555847897754624191,648,1403636619419881343,,4.65907012261,-1.70250688601,0.677302450034
1555847897798000331,649,1403636619466881275,,4.6590562998,-1.70253758917,0.677287707738
1555847897841914101,650,1403636619520881175,,4.65906788594,-1.70251566849,0.677307958104
1555847897888899671,651,1403636619618881225,,4.65907553845,-1.70249672259,0.677312088577
1555847897947224673,652,1403636619666881322,,4.65905720695,-1.70253366438,0.677284722939
1555847898009454722,653,1403636619717881202,,4.65906329896,-1.70252477956,0.677300836049
1555847898052429031,654,1403636619769881248,,4.65908334587,-1.70247782679,0.677317200556
1555847898097200247,655,1403636619819881200,,4.65907420876,-1.70249960318,0.677310519424
1555847898141687027,656,1403636619867881298,,4.65906995729,-1.70249997306,0.677287208102
1555847898189178986,657,1403636619918881177,,4.65907978256,-1.70248539668,0.677312685852
1555847898255561610,658,1403636619969881296,,4.65907056709,-1.70250049041,0.677291732107
1555847898299943125,659,1403636620017881393,,4.659065802,-1.7025048198,0.677273706311
1555847898390262545,660,1403636620067881345,,4.66000539952,-1.70283291353,0.677161917334
1555847898440155483,661,1403636620118881225,,4.65999305198,-1.70283903709,0.677104663566
1555847898506836204,662,1403636620220881223,,4.65907485351,-1.70249666206,0.677308084349
1555847898562682394,663,1403636620270881175,,4.6590681618,-1.70248362583,0.677243212897
1555847898595675125,664,1403636620319881200,,4.6590669536,-1.70251709881,0.677305638067
1555847898641758535,665,1403636620370881319,,4.65906803509,-1.70250123073,0.677278925227
1555847898756384361,666,1403636620418881177,,4.65906979647,-1.7024884082,0.677262365755
1555847898801173289,667,1403636620470881223,,4.65906371351,-1.70251664375,0.677286347305
1555847898845448819,668,1403636620521881341,,4.65906550732,-1.70250521306,0.677272851352
1555847898891467656,669,1403636620619881391,,4.65907296254,-1.70249299742,0.677289791884
1555847898940982839,670,1403636620669881343,,4.65906561441,-1.70251188976,0.677287274328
1555847898994647844,671,1403636620721881389,,4.65907597546,-1.70249470803,0.677310394469
1555847899040249521,672,1403636620767881393,,4.65907594306,-1.702495011,0.677310837963
1555847899140235442,673,1403636620818881273,,4.65906887246,-1.70250316616,0.677287672388
1555847899189286455,674,1403636620868881225,,4.65906670992,-1.70251009559,0.677289765455
1555847899256002670,675,1403636620968881368,,4.65906800823,-1.70249411707,0.677264052546
1555847899299493340,676,1403636621018881320,,4.66000416307,-1.70282973774,0.677148342809
1555847899343172745,677,1403636621067881345,,4.65906374861,-1.70251846747,0.677290320085
1555847899387869237,678,1403636621119881391,,4.65906558832,-1.70251083831,0.677284950729
1555847899505117417,679,1403636621218881368,,4.65907977527,-1.7024960775,0.677334748108
1555847899550038095,680,1403636621269881248,,4.65908393558,-1.70248505659,0.677335502031
1555847899592921131,681,1403636621321881294,,4.65908132734,-1.70249119765,0.677333439329
1555847899641559352,682,1403636621367881298,,4.65907286264,-1.70250374183,0.677311460701
1555847899689899498,683,1403636621420881271,,4.65907437506,-1.70249876624,0.677309729229
1555847899755797588,684,1403636621470881223,,4.65907726739,-1.70249282328,0.677313810661
1555847899841533327,685,1403636621521881341,,4.65906765841,-1.70251822371,0.67731195749
1555847899889196472,686,1403636621567881345,,4.65907458698,-1.70249868635,0.677310764047
1555847899945636420,687,1403636621620881319,,4.65907194388,-1.70250696124,0.677312919927
1555847899998556647,688,1403636621721881389,,4.65907347512,-1.70250172167,0.67731074871
1555847900041554256,689,1403636621770881175,,4.6590717441,-1.70250212717,0.677301784794
1555847900087807349,690,1403636621820881366,,4.65907095856,-1.70250902708,0.677311614964
1555847900138590939,691,1403636621867881298,,4.65907765665,-1.70249028584,0.677310764047
1555847900254872079,692,1403636621968881368,,4.65907727336,-1.70249219198,0.677312538021
1555847900296758709,693,1403636622020881175,,4.65907122277,-1.7025193808,0.677334538146
1555847900343947655,694,1403636622068881273,,4.65907114754,-1.70251004031,0.677314782046
1555847900389742415,695,1403636622117881298,,4.65906861891,-1.70252087165,0.677322876913
1555847900441440165,696,1403636622168881177,,4.65907808558,-1.70248918346,0.677310911878
1555847900491837816,697,1403636622219881296,,4.6590764721,-1.70249977533,0.677323693605
1555847900541815371,698,1403636622266881227,,4.65907058234,-1.70251123329,0.677314050003
1555847900638528634,699,1403636622319881200,,4.65908014175,-1.7024955032,0.677335635096
1555847900688888862,700,1403636622366881370,,4.65908411477,-1.70247358663,0.677312780389
1555847900753794344,701,1403636622466881275,,4.65907629969,-1.70250558882,0.677334748108
1555847900798878853,702,1403636622516881227,,4.65908048452,-1.7024817969,0.67730921182
1555847900843513238,703,1403636622568881273,,4.65907997825,-1.70249462316,0.677332887889
1555847900890065134,704,1403636622619881391,,4.65908550127,-1.70247931891,0.677332495215
1555847901005817895,705,1403636622719881296,,4.65907712469,-1.70249100307,0.677309235683
1555847901049514289,706,1403636622768881320,,4.65908256006,-1.70248125234,0.67731983923
1555847901095037641,707,1403636622818881273,,4.65908492773,-1.70248179334,0.677334367737
1555847901139793450,708,1403636622867881298,,4.6590906999,-1.70246674694,0.677335919965
1555847901188119295,709,1403636622919881343,,4.65908773389,-1.70247518536,0.677336585206
1555847901255255923,710,1403636622967881202,,4.65908068719,-1.70249332848,0.677334223602
1555847901342133764,711,1403636623020881175,,4.65910044866,-1.70244724248,0.677350768117
1555847901389371101,712,1403636623070881366,,4.65911143893,-1.70242895031,0.677375157438
1555847901441927077,713,1403636623119881391,,4.65912262787,-1.70239818363,0.677374857183
1555847901507841823,714,1403636623220881223,,4.65913892963,-1.70236800641,0.677404736323
1555847901551497118,715,1403636623270881175,,4.65914127451,-1.70237046505,0.677423106058
1555847901595008059,716,1403636623319881200,,4.65914391219,-1.7023567293,0.677409619334
1555847901688152301,717,1403636623367881298,,4.6591505287,-1.7023387452,0.677409877151
1555847901754456668,718,1403636623466881275,,4.65915998283,-1.70232489585,0.677434764962
1555847901826972438,719,1403636623566881179,,4.65916395012,-1.70230210821,0.677410077313
1555847901872042760,720,1403636623619881391,,4.65915899743,-1.70231589795,0.677410562395
1555847901933806786,721,1403636623669881343,,4.6591546625,-1.70234400367,0.677444174191
1555847902003543658,722,1403636623719881296,,4.65916154195,-1.70233073159,0.677455673653
1555847902046238883,723,1403636623768881320,,4.65915472637,-1.7023587298,0.677475013594
1555847902089940466,724,1403636623819881200,,4.65915088673,-1.70236250629,0.677461080342
